,City,Cloudiness,Country,Date,Humidity,Latitude,Longitude,Max Temperature,Windspeed
0,guadalupe y calvo,37,MX,1604337702,26,26.1,-106.97,67.19,3.94
1,sisimiut,64,GL,1604337464,90,66.94,-53.67,21.27,15.66
2,tocopilla,15,CL,1604337702,47,-22.09,-70.2,68.88,7.27
3,shakiso,51,ET,1604337702,93,5.75,38.92,58.86,2.8
4,hermanus,0,ZA,1604337702,78,-34.42,19.23,68.0,4.0
5,bengkulu,99,ID,1604337702,88,-3.8,102.27,75.52,4.36
6,kodiak,1,US,1604337703,49,57.79,-152.41,24.8,12.75
7,saint george,1,US,1604337619,24,37.1,-113.58,57.2,5.82
8,mar del plata,20,AR,1604337408,64,-38.0,-57.56,68.0,9.17
9,lucea,40,JM,1604337703,74,18.45,-78.17,84.2,16.11
10,rikitea,79,PF,1604337703,82,-23.12,-134.97,72.46,21.23
11,kaitangata,84,NZ,1604337703,80,-46.28,169.85,48.99,1.99
12,puerto ayora,75,EC,1604337687,69,-0.74,-90.35,77.0,16.11
13,port alfred,8,ZA,1604337704,81,-33.59,26.89,67.21,25.77
14,kirakira,100,SB,1604337704,83,-10.45,161.92,77.95,6.06
15,bredasdorp,0,ZA,1604337704,77,-34.53,20.04,66.2,13.87
16,thompson,90,CA,1604337704,79,55.74,-97.86,23.0,5.82
17,tasiilaq,0,GL,1604337704,53,65.61,-37.64,24.8,3.36
18,constitucion,46,CL,1604337704,66,-35.33,-72.42,62.15,10.25
19,naliya,0,IN,1604337625,38,23.27,68.83,79.92,5.01
20,labuhan,100,ID,1604337705,85,-6.88,112.21,78.94,7.56
21,waingapu,78,ID,1604337705,75,-9.66,120.26,80.78,4.09
22,port elizabeth,20,ZA,1604337686,88,-33.92,25.57,66.2,21.92
23,kapaa,75,US,1604337705,100,22.08,-159.32,69.8,6.93
24,carnarvon,0,AU,1604337625,82,-24.87,113.63,64.4,8.05
25,provideniya,48,RU,1604337560,94,64.38,-173.3,23.41,7.2
26,cururupu,73,BR,1604337705,48,-1.83,-44.87,91.45,7.94
27,salalah,0,OM,1604337706,57,17.02,54.09,80.6,2.24
28,mizdah,0,LY,1604337706,42,31.45,12.98,63.57,7.14
29,iqaluit,75,CA,1604337706,61,63.75,-68.51,17.6,9.17
30,miracema do tocantins,100,BR,1604337706,87,-9.56,-48.4,74.71,6.62
31,albany,98,US,1604337706,64,42.6,-73.97,36.0,4.0
32,bluff,18,NZ,1604337706,93,-46.6,168.33,39.99,1.01
33,busselton,8,AU,1604337706,97,-33.65,115.33,55.0,9.84
34,atuona,60,PF,1604337707,76,-9.8,-139.03,77.52,20.11
35,longyearbyen,75,SJ,1604337707,74,78.22,15.64,33.8,41.38
36,severo-kurilsk,80,RU,1604337707,81,50.68,156.12,42.75,20.13
37,mahajanga,20,MG,1604337707,74,-15.72,46.32,80.6,6.93
38,mataura,77,NZ,1604337707,93,-46.19,168.86,39.99,1.01
39,punta arenas,0,CL,1604337707,41,-53.15,-70.92,59.0,10.29
40,tadine,100,NC,1604337707,88,-21.55,167.88,74.52,8.59
41,port blair,59,IN,1604337707,82,11.67,92.75,80.6,4.9
42,norman wells,90,CA,1604337675,84,65.28,-126.83,6.8,5.82
43,victor harbor,96,AU,1604337708,43,-35.57,138.62,71.01,1.01
44,yar-sale,80,RU,1604337708,93,66.83,70.83,20.03,8.59
45,saint anthony,1,US,1604337581,42,45.02,-93.22,46.99,10.29
46,bambous virieux,75,MU,1604337708,64,-20.34,57.76,73.4,11.41
47,raudeberg,98,NO,1604337708,94,61.99,5.14,46.0,18.25
48,ambilobe,2,MG,1604337708,72,-13.2,49.05,73.98,1.63
49,taltal,8,CL,1604337709,58,-25.4,-70.48,64.83,7.85
50,ushuaia,20,AR,1604337684,66,-54.8,-68.3,55.4,6.93
51,nadym,25,RU,1604337709,95,65.53,72.52,15.98,11.12
52,ormstown,96,CA,1604337656,50,45.13,-74.0,33.8,19.46
53,balabac,80,PH,1604337709,80,7.99,117.06,81.72,10.02
54,cruzeiro do oeste,1,BR,1604337709,37,-23.79,-53.07,82.87,1.45
55,port hedland,0,AU,1604337621,83,-20.32,118.57,73.4,9.17
56,hithadhoo,32,MV,1604337709,76,-0.6,73.08,83.37,10.71
57,acara,35,BR,1604337710,39,-1.96,-48.2,97.59,1.86
58,turukhansk,100,RU,1604337710,97,65.82,87.98,16.68,9.66
59,clyde river,75,CA,1604337710,85,70.47,-68.59,12.2,18.34
60,khatanga,100,RU,1604337710,96,71.97,102.5,13.53,8.88
61,tura,2,IN,1604337710,88,25.52,90.22,71.17,1.99
62,savelugu,60,GH,1604337710,31,9.62,-0.83,92.23,5.08
63,cape town,0,ZA,1604337440,72,-33.93,18.42,71.01,12.75
64,lagoa,53,PT,1604337710,62,39.05,-27.98,61.9,12.21
65,airai,100,TL,1604337710,76,-8.93,125.41,61.63,1.61
66,riacho de santana,74,BR,1604337711,69,-13.61,-42.94,80.65,0.51
67,sakakah,75,SA,1604337711,32,29.97,40.21,80.6,11.41
68,butaritari,99,KI,1604337711,77,3.07,172.79,81.01,20.0
69,padang,100,ID,1604337711,79,-0.95,100.35,77.47,5.88
70,abonnema,75,NG,1604337711,59,4.71,6.79,89.6,3.36
71,micheweni,86,TZ,1604337711,81,-4.97,39.83,78.13,11.83
72,buenaventura,33,CO,1604337711,71,3.88,-77.03,84.63,6.76
73,saint-joseph,90,RE,1604337712,60,-21.37,55.62,73.4,12.75
74,talnakh,75,RU,1604337712,92,69.49,88.4,15.8,2.24
75,kem,22,RU,1604337712,89,64.96,34.58,34.23,20.65
76,santa marta,48,CO,1604337511,67,11.24,-74.2,87.01,1.01
77,hilo,1,US,1604337464,78,19.73,-155.09,71.6,4.7
78,lakhdenpokhya,80,RU,1604337712,84,61.52,30.2,37.0,18.57
79,nakambala,9,ZM,1604337713,39,-15.83,27.78,79.65,7.47
80,damme,99,DE,1604337713,88,52.52,8.2,62.01,7.0
81,mananara,8,MG,1604337713,77,-16.17,49.77,68.68,5.39
82,tabou,69,CI,1604337713,79,4.42,-7.35,81.18,7.43
83,bathsheba,40,BB,1604337713,66,13.22,-59.52,87.8,20.8
84,margate,15,GB,1604337713,69,51.38,1.39,54.0,4.0
85,ponta do sol,75,PT,1604337713,64,32.67,-17.1,71.6,9.17
86,gorontalo,100,ID,1604337625,71,0.54,123.06,75.29,1.88
87,jamestown,90,US,1604337569,95,42.1,-79.24,35.01,20.8
88,irun,90,ES,1604337714,93,43.34,-1.79,61.0,2.24
89,adre,13,TD,1604337714,22,13.47,22.2,85.35,10.49
90,bethel,75,US,1604337714,48,41.37,-73.41,39.99,17.22
91,dumas,1,US,1604337714,41,35.87,-101.97,64.0,14.99
92,banda aceh,89,ID,1604337714,81,5.56,95.32,80.31,2.37
93,riyadh,0,SA,1604337468,27,24.69,46.72,78.8,3.36
94,cabo san lucas,5,MX,1604337714,51,22.89,-109.91,88.0,5.03
95,hobart,90,AU,1604337517,59,-42.88,147.33,62.01,11.41
96,xiaoshi,0,CN,1604337715,80,41.3,124.12,32.0,6.71
97,vaini,75,TO,1604337701,94,-21.2,-175.2,73.4,8.05
98,coahuayana,40,MX,1604337715,42,18.73,-103.68,80.6,20.8
99,arraial do cabo,40,BR,1604337715,64,-22.97,-42.03,75.2,10.29
100,port hawkesbury,90,CA,1604337715,100,45.62,-61.35,57.99,21.92
101,mount gambier,99,AU,1604337715,59,-37.83,140.77,62.6,10.29
102,adrar,100,MR,1604337715,12,20.5,-10.07,90.16,7.43
103,asau,0,RO,1604337716,87,46.43,26.4,48.2,3.36
104,bontang,100,ID,1604337716,84,0.13,117.5,78.51,6.78
105,suntar,74,RU,1604337716,86,62.14,117.63,7.02,9.13
106,yuzhno-kurilsk,94,RU,1604337716,85,44.03,145.86,50.94,12.24
107,new norfolk,100,AU,1604337716,56,-42.78,147.06,62.01,1.01
108,vila franca do campo,20,PT,1604337716,59,37.72,-25.43,64.4,14.99
109,kavieng,75,PG,1604337716,73,-2.57,150.8,82.78,3.33
110,tabas,0,IR,1604337717,17,33.6,56.92,66.2,4.7
111,ixtapa,5,MX,1604337666,55,20.7,-105.2,87.8,4.7
112,dunedin,82,NZ,1604337717,80,-45.87,170.5,50.0,1.99
113,naze,40,JP,1604337717,78,28.37,129.48,75.2,18.34
114,broken hill,34,AU,1604337717,42,-31.95,141.43,68.0,10.29
115,abu dhabi,0,AE,1604337717,58,24.47,54.37,84.2,5.82
116,ajjampur,7,IN,1604337717,69,13.73,76.01,71.46,3.96
117,frunzivka,95,UA,1604337717,72,47.33,29.75,48.15,5.44
118,lolotique,20,SV,1604337718,66,13.55,-88.35,86.0,2.24
119,narsaq,75,GL,1604337718,53,60.92,-46.05,23.0,5.82
120,hofn,75,IS,1604337718,45,64.25,-15.21,42.8,11.41
121,sao joao da barra,75,BR,1604337718,53,-21.64,-41.05,75.2,11.41
122,surgana,60,IN,1604337718,53,20.57,73.62,71.37,4.05
123,kamogata,100,JP,1604337718,96,34.53,133.58,57.0,9.8
124,visby,90,SE,1604337718,93,57.64,18.3,59.0,27.51
125,benguela,75,AO,1604337548,83,-12.58,13.41,80.6,9.17
126,ribeira grande,40,PT,1604337718,59,38.52,-28.7,64.4,14.99
127,amapa,13,BR,1604337719,27,1.0,-52.0,103.06,2.55
128,girona,75,ES,1604337523,100,41.98,2.82,62.6,6.93
129,lasa,40,IT,1604337719,81,46.62,10.7,53.01,1.12
130,hualmay,88,PE,1604337719,62,-11.1,-77.61,68.4,8.05
131,gimli,77,CA,1604337719,76,50.63,-96.99,44.6,5.82
132,lebu,100,CL,1604337719,77,-37.62,-73.65,57.25,10.94
133,apt,90,FR,1604337719,82,43.88,5.4,62.6,4.7
134,geraldton,75,AU,1604337719,87,-28.77,114.6,57.2,5.82
135,gizo,65,SB,1604337719,72,-8.1,156.84,83.62,3.36
136,menongue,71,AO,1604337720,50,-14.66,17.69,74.39,3.71
137,bani walid,0,LY,1604337720,44,31.76,13.99,68.04,2.57
138,waynesboro,1,US,1604337720,26,38.07,-78.89,51.01,9.17
139,tandalti,44,SD,1604337720,20,13.02,31.87,95.59,10.63
140,saint-philippe,90,RE,1604337444,60,-21.36,55.77,73.4,12.75
141,lobanovo,90,RU,1604337720,79,57.86,56.3,28.4,2.24
142,kutum,3,SD,1604337720,23,14.2,24.67,79.29,15.03
143,georgetown,20,MY,1604337509,88,5.41,100.34,78.8,4.7
144,teshie,75,GH,1604337721,79,5.58,-0.11,84.2,9.17
145,hasaki,75,JP,1604337721,100,35.73,140.83,59.0,5.82
146,coihaique,0,CL,1604337717,59,-45.58,-72.07,62.6,3.36
147,barrow,90,US,1604337721,68,71.29,-156.79,26.6,12.75
148,upernavik,95,GL,1604337488,91,72.79,-56.15,16.9,6.44
149,tezu,35,IN,1604337721,84,27.92,96.17,69.44,3.18
150,severo-yeniseyskiy,97,RU,1604337721,98,60.37,93.04,21.27,9.15
151,kingman,20,US,1604337722,19,35.19,-114.05,78.01,6.93
152,batticaloa,11,LK,1604337722,76,7.71,81.69,81.03,5.84
153,strezhevoy,90,RU,1604337722,92,60.73,77.59,28.4,4.47
154,komsomolskiy,0,UZ,1604337722,42,40.43,71.72,48.2,6.93
155,isangel,96,VU,1604337722,84,-19.55,169.27,77.34,11.45
156,luderitz,30,NA,1604337722,85,-26.65,15.16,62.13,9.69
157,kruisfontein,0,ZA,1604337723,80,-34.0,24.73,68.0,3.0
158,mahibadhoo,0,MV,1604337670,74,3.78,72.97,82.85,7.07
159,mafeteng,0,LS,1604337723,36,-29.82,27.24,63.32,3.4
160,mayor pablo lagerenza,0,PY,1604337723,16,-19.93,-60.77,95.94,6.96
161,lavrentiya,11,RU,1604337714,89,65.58,-171.0,19.26,5.21
162,tiksi,98,RU,1604337723,90,71.69,128.87,-1.28,5.35
163,humboldt,1,US,1604337723,87,40.67,-123.92,50.0,4.7
164,yellowknife,75,CA,1604337692,77,62.46,-114.35,6.8,12.75
165,vanavara,100,RU,1604337723,99,60.34,102.28,31.37,6.24
166,northam,8,GB,1604337724,74,51.03,-4.22,51.01,15.99
167,tuktoyaktuk,75,CA,1604337724,77,69.45,-133.04,5.0,12.75
168,samarai,92,PG,1604337724,81,-10.62,150.67,81.54,8.28
169,yulara,72,AU,1604337724,17,-25.24,130.99,82.4,5.82
170,castro,16,BR,1604337724,41,-24.79,-50.01,70.65,1.23
171,mareeba,7,AU,1604337725,78,-17.0,145.43,77.0,8.05
172,kovur,3,IN,1604337725,75,14.48,79.98,79.86,1.74
173,saldanha,0,ZA,1604337725,18,-33.01,17.94,87.8,10.29
174,viru,90,PE,1604337725,72,-8.42,-78.75,66.2,10.29
175,bani,40,DO,1604337601,66,18.28,-70.33,86.0,11.41
176,fortuna,1,US,1604337725,87,40.6,-124.16,50.0,4.7
177,avarua,75,CK,1604337725,88,-21.21,-159.78,71.6,17.22
178,tuatapere,51,NZ,1604337490,93,-46.13,167.68,39.99,1.01
179,vila velha,20,BR,1604337726,65,-20.33,-40.29,77.0,20.8
180,kang,41,BW,1604337726,26,-23.68,22.79,85.84,5.75
181,chara,1,RU,1604337726,74,56.91,118.26,-11.79,0.85
182,kolvereid,75,NO,1604337726,93,64.87,11.6,50.0,13.87
183,lahaina,20,US,1604337663,74,20.88,-156.68,78.8,8.05
184,east london,20,ZA,1604337541,82,-33.02,27.91,66.2,13.87
185,ilulissat,75,GL,1604337695,73,69.22,-51.1,24.8,13.87
186,bereda,98,ES,1604337727,100,43.27,-7.54,55.0,1.01
187,noyabrsk,63,RU,1604337727,97,63.2,75.45,16.34,9.33
188,chernyshevskiy,100,RU,1604337727,97,63.01,112.47,13.87,9.48
189,taoudenni,100,ML,1604337727,12,22.68,-3.98,91.36,4.63
190,salinopolis,55,BR,1604337703,64,-0.61,-47.36,86.07,10.2
191,half moon bay,5,US,1604337511,82,37.46,-122.43,66.99,3.18
192,fort nelson,90,CA,1604337727,84,58.81,-122.7,8.6,3.36
193,bagdarin,0,RU,1604337728,80,54.43,113.6,6.57,3.02
194,esperance,6,AU,1604337588,93,-33.87,121.9,55.4,12.75
195,tchibanga,100,GA,1604337728,96,-2.85,11.03,73.22,1.77
196,jieshi,31,CN,1604337728,74,22.81,115.83,70.7,8.99
197,nanortalik,67,GL,1604337728,89,60.14,-45.24,29.61,10.09
198,saint-francois,0,FR,1604337728,72,46.42,3.91,66.2,3.36
199,cap malheureux,42,MU,1604337729,66,-19.98,57.61,71.01,3.0
200,nikolskoye,90,RU,1604337467,86,59.7,30.79,39.2,13.42
201,itarema,28,BR,1604337616,55,-2.92,-39.92,88.25,14.23
202,klaksvik,40,FO,1604337729,81,62.23,-6.59,42.8,20.8
203,qui nhon,100,VN,1604337729,85,13.77,109.23,73.8,10.09
204,scandiano,40,IT,1604337729,100,44.6,10.69,55.4,8.05
205,del rio,1,US,1604337623,42,29.36,-100.9,64.4,5.82
206,hobyo,64,SO,1604337729,79,5.35,48.53,81.23,12.19
207,evensk,99,RU,1604337729,98,61.95,159.23,25.09,4.72
208,mount isa,0,AU,1604337730,15,-20.73,139.5,78.8,9.17
209,flinders,37,AU,1604337502,88,-34.58,150.86,54.0,1.01
210,sohag,0,EG,1604337730,36,26.56,31.69,78.8,13.87
211,ajdabiya,2,LY,1604337730,58,30.76,20.23,70.32,10.29
212,eyrarbakki,75,IS,1604337730,80,63.86,-21.15,39.2,20.8
213,floro,75,NO,1604337730,81,61.6,5.03,48.2,11.41
214,shymkent,0,KZ,1604337730,30,42.3,69.6,44.6,6.71
215,shingu,100,JP,1604337730,94,33.73,135.98,60.15,3.76
216,sambava,1,MG,1604337730,78,-14.27,50.17,73.11,15.43
217,san patricio,20,US,1604337731,49,28.02,-97.52,73.4,10.29
218,sao gabriel da cachoeira,40,BR,1604337731,70,-0.13,-67.09,86.0,3.36
219,palembang,100,ID,1604337731,95,-2.92,104.75,76.12,4.99
220,atmakur,7,IN,1604337731,75,15.88,78.58,74.23,4.03
221,lodja,100,CD,1604337731,88,-3.48,23.43,72.43,1.03
222,hohhot,0,CN,1604337437,53,40.81,111.65,23.0,8.95
223,purranque,90,CL,1604337470,82,-40.92,-73.17,55.4,4.7
224,pinega,11,RU,1604337731,90,64.7,43.39,30.0,13.06
225,mahebourg,75,MU,1604337731,64,-20.41,57.7,73.4,11.41
226,carnot,43,CF,1604337732,85,4.94,15.87,74.01,2.91
227,yantongshan,24,CN,1604337732,78,43.29,126.01,27.37,11.7
228,waipawa,100,NZ,1604337732,93,-41.41,175.52,50.0,1.12
229,lompoc,1,US,1604337488,51,34.64,-120.46,69.8,1.81
230,leningradskiy,100,RU,1604337732,84,69.38,178.42,15.37,4.9
231,kailua,40,US,1604337514,94,21.4,-157.74,73.4,3.36
232,kilifarevo,41,BG,1604337733,100,42.98,25.63,51.01,2.24
233,safonovo,98,RU,1604337733,95,55.15,33.22,42.75,5.14
234,cherskiy,100,RU,1604337733,92,68.75,161.3,-1.97,10.8
235,dalbandin,0,PK,1604337733,23,28.89,64.41,55.22,3.51
236,kudahuvadhoo,96,MV,1604337733,72,2.67,72.89,83.28,9.53
237,sungairaya,100,ID,1604337734,84,0.7,108.9,79.16,3.09
238,faanui,2,PF,1604337734,77,-16.48,-151.75,79.0,19.37
239,mangan,23,IN,1604337550,36,27.52,88.53,64.76,5.86
240,pierre,1,US,1604337627,52,44.37,-100.35,46.4,8.05
241,riviere-au-renard,90,CA,1604337734,93,49.0,-64.4,46.4,8.05
242,grindavik,75,IS,1604337735,86,63.84,-22.43,39.2,27.51
243,elizabeth city,0,US,1604337735,43,36.29,-76.25,50.0,3.0
244,bang mun nak,43,TH,1604337735,91,16.03,100.38,76.3,5.17
245,chuy,49,UY,1604337735,60,-33.7,-53.46,67.08,8.12
246,yaan,85,NG,1604337735,61,7.38,8.57,82.71,1.81
247,tessalit,100,ML,1604337585,14,20.2,1.01,83.25,9.22
248,bijie,100,CN,1604337736,68,27.31,105.29,47.17,0.29
249,namatanai,15,PG,1604337736,81,-3.67,152.43,79.99,3.85
250,codrington,99,AU,1604337736,55,-38.27,141.97,61.14,9.19
251,dauphin,1,CA,1604337736,62,51.15,-100.05,57.2,17.22
252,vestmannaeyjar,75,IS,1604337736,75,63.44,-20.27,41.0,23.04
253,high prairie,98,CA,1604337737,75,55.43,-116.49,41.0,3.36
254,avera,1,US,1604337737,26,33.19,-82.53,57.0,11.41
255,kirkuk,95,IQ,1604337737,18,35.47,44.39,78.73,15.28
256,ewa beach,1,US,1604337466,83,21.32,-158.01,71.6,6.49
257,seoul,75,KR,1604337674,81,37.57,126.98,48.2,11.95
258,ibotirama,99,BR,1604337738,84,-12.19,-43.22,75.33,4.65
259,nador,20,MA,1604337738,82,35.17,-2.93,66.2,4.7
260,sarangani,100,PH,1604337738,73,5.4,125.46,83.28,6.42
261,pochutla,75,MX,1604337738,62,15.74,-96.47,87.8,4.65
262,bonavista,91,CA,1604337738,93,48.65,-53.11,51.01,14.99
263,kahului,20,US,1604337739,74,20.89,-156.47,78.8,8.05
264,anadyr,40,RU,1604337483,85,64.75,177.48,14.0,8.95
265,ripoll,40,ES,1604337739,67,42.2,2.19,57.99,1.01
266,wasilla,1,US,1604337739,41,61.58,-149.44,21.2,25.28
267,kijang,0,KR,1604337739,75,35.24,129.21,46.4,1.12
268,acari,64,PE,1604337739,45,-15.43,-74.62,77.18,10.49
269,strelka,93,RU,1604337739,97,58.07,93.03,26.71,7.29
270,hwange,100,ZW,1604337740,47,-18.37,26.5,75.6,6.02
271,jiuquan,3,CN,1604337740,65,39.74,98.52,36.19,2.95
272,poum,100,NC,1604337740,78,-20.23,164.02,76.86,7.72
273,sangar,93,RU,1604337740,90,63.92,127.47,-10.28,3.91
274,sergeyevka,23,KZ,1604337740,97,53.88,67.42,28.89,8.1
275,anloga,20,GH,1604337740,78,5.79,0.9,80.6,4.7
276,wanning,100,CN,1604337740,85,18.8,110.4,72.61,8.66
277,bandarbeyla,0,SO,1604337740,81,9.49,50.81,78.42,22.03
278,yuanping,0,CN,1604337741,66,38.72,112.76,35.67,3.47
279,sorland,75,NO,1604337729,93,67.67,12.69,46.4,8.05
280,collie,24,AU,1604337741,96,-33.37,116.15,50.85,3.62
281,ketchikan,90,US,1604337741,93,55.34,-131.65,51.8,23.04
282,dudinka,75,RU,1604337741,92,69.41,86.18,15.8,2.24
283,meulaboh,100,ID,1604337741,82,4.14,96.13,79.07,2.73
284,koutiala,0,ML,1604337741,20,12.39,-5.46,92.98,6.82
285,shenxian,0,CN,1604337742,45,36.24,115.67,44.67,8.61
286,bushehr,0,IR,1604337742,54,28.97,50.84,80.6,4.7
287,santa catalina,92,PH,1604337742,78,9.33,122.86,79.03,3.83
288,tall kayf,80,TR,1604337742,31,37.08,41.07,66.51,4.68
289,santa maria,20,BR,1604337458,41,-29.68,-53.81,75.2,10.29
290,maumere,82,ID,1604337742,76,-8.62,122.21,80.62,4.12
291,khorramshahr,0,IR,1604337742,41,30.44,48.17,77.0,4.7
292,aklavik,26,CA,1604337742,70,68.22,-135.01,1.4,6.93
293,necochea,0,AR,1604337742,45,-38.55,-58.74,72.36,8.32
294,lorengau,75,PG,1604337743,76,-2.02,147.27,81.18,2.35
295,vega de alatorre,54,MX,1604337743,64,20.03,-96.63,74.88,23.17
296,xining,90,CN,1604337743,73,36.62,101.77,34.95,1.5
297,beyla,52,GN,1604337743,58,8.68,-8.63,82.15,3.18
298,marsaxlokk,0,MT,1604337743,82,35.84,14.54,66.0,6.93
299,teseney,0,ER,1604337743,18,15.11,36.66,88.86,9.04
300,kandrian,12,PG,1604337743,84,-6.22,149.55,78.13,2.93
301,san alberto,95,CO,1604337743,65,7.76,-73.39,85.15,3.76
302,kanigoro,33,ID,1604337744,87,-8.13,112.22,74.48,1.57
303,victoria,6,HK,1604337744,68,22.29,114.16,73.99,1.01
304,mana,95,GF,1604337744,80,5.66,-53.78,80.38,11.7
305,sao filipe,13,CV,1604337744,64,14.9,-24.5,81.91,6.2
306,yerbogachen,100,RU,1604337744,97,61.28,108.01,21.49,11.5
307,tymovskoye,75,RU,1604337744,92,50.85,142.66,32.77,4.72
308,zhigansk,100,RU,1604337744,92,66.77,123.37,1.0,21.81
309,brezno,100,SK,1604337745,78,48.8,19.64,50.0,2.04
310,verkhnevilyuysk,41,RU,1604337640,89,63.45,120.32,3.49,6.98
311,dikson,99,RU,1604337745,97,73.51,80.55,17.06,7.14
312,vilyuysk,27,RU,1604337745,91,63.76,121.62,-0.83,6.53
313,srednekolymsk,7,RU,1604337507,87,67.45,153.68,-9.85,9.06
314,chopinzinho,24,BR,1604337745,33,-25.86,-52.52,77.16,6.33
315,omsukchan,88,RU,1604337745,94,62.53,155.8,13.55,1.66
316,chokurdakh,95,RU,1604337746,89,70.63,147.92,-8.72,9.1
317,lima,90,PE,1604337614,64,-12.04,-77.03,68.0,6.93
318,olavarria,0,AR,1604337746,47,-36.89,-60.32,73.99,4.0
319,berea,75,US,1604337746,55,41.37,-81.85,41.0,19.46
320,jacmel,99,HT,1604337746,55,18.23,-72.53,87.8,12.75
321,san javier,0,ES,1604337746,77,37.81,-0.84,66.2,5.82
322,sinjar,33,IQ,1604337746,39,36.32,41.88,63.61,4.18
323,nelson bay,40,AU,1604337746,100,-32.72,152.15,55.99,6.93
324,smithers,90,CA,1604337727,93,54.78,-127.17,44.6,4.7
325,kourou,75,GF,1604337527,88,5.16,-52.65,80.6,2.24
326,honningsvag,75,NO,1604337747,75,70.98,25.97,42.8,25.28
327,miraflores,20,MX,1604337747,43,19.22,-98.81,60.8,12.75
328,buluang,100,PH,1604337747,87,13.31,123.34,77.63,2.37
329,haines junction,100,CA,1604337747,71,60.75,-137.51,5.0,4.7
330,aswan,0,EG,1604337747,34,24.09,32.91,77.2,12.5
331,bilibino,100,RU,1604337747,91,68.05,166.44,2.62,4.61
332,ronne,100,DK,1604337748,100,55.1,14.71,59.0,17.22
333,cairns,7,AU,1604337748,78,-16.92,145.77,77.0,8.05
334,pevek,100,RU,1604337748,89,69.7,170.31,14.43,11.92
335,cayenne,75,GF,1604337748,88,4.93,-52.33,80.6,2.24
336,aksarka,6,RU,1604337748,94,66.56,67.8,15.96,8.14
337,cartagena,20,CO,1604337616,66,10.4,-75.51,87.8,12.75
338,toora-khem,92,RU,1604337748,93,52.47,96.11,23.68,1.14
339,peniche,100,PT,1604337748,91,39.36,-9.38,63.0,11.01
340,alyangula,96,AU,1604337749,100,-13.85,136.42,73.4,1.3
341,kungurtug,64,RU,1604337749,85,50.6,97.52,23.81,1.3
342,banff,99,CA,1604337749,71,51.18,-115.57,46.4,11.41
343,qaqortoq,75,GL,1604337749,53,60.72,-46.03,23.0,5.82
344,brae,40,GB,1604337749,70,60.4,-1.35,48.2,13.87
345,monchegorsk,100,RU,1604337749,92,67.94,32.87,32.72,23.8
346,helong,0,CN,1604337749,78,42.54,129.0,26.83,8.25
347,abu kamal,43,SY,1604337749,37,34.45,40.92,68.45,3.78
348,pangkalanbuun,100,ID,1604337750,96,-2.68,111.62,75.07,1.23
349,guerrero negro,9,MX,1604337750,48,27.98,-114.06,77.25,11.54
350,dobryanka,90,RU,1604337750,79,58.46,56.42,28.4,2.24
351,dasoguz,0,TM,1604337750,31,41.84,59.97,50.0,9.17
352,porto belo,40,BR,1604337750,60,-27.16,-48.55,73.99,9.17
353,senno,80,RU,1604337750,92,59.53,33.92,39.09,11.3
354,marzuq,0,YE,1604337751,27,14.4,46.47,65.77,2.33
355,itamaraca,40,BR,1604337751,62,-7.75,-34.83,87.8,11.41
356,sitka,90,US,1604337632,87,57.05,-135.33,44.6,16.11
357,lundazi,90,ZM,1604337751,59,-12.29,33.18,71.4,7.45
358,ahipara,95,NZ,1604337751,87,-35.17,173.17,63.03,10.16
359,soyo,64,AO,1604337751,83,-6.13,12.37,79.25,8.93
360,cidreira,0,BR,1604337582,53,-30.18,-50.21,67.42,8.72
361,nome,1,US,1604337751,77,64.5,-165.41,6.8,4.54
362,san cristobal,40,VE,1604337752,74,7.77,-72.22,82.4,3.36
363,qaanaaq,91,GL,1604337752,76,77.48,-69.36,4.89,4.27
364,jumla,0,NP,1604337752,58,29.27,82.18,44.94,6.8
365,nouadhibou,96,MR,1604337752,53,20.93,-17.03,75.2,14.99
366,makubetsu,80,JP,1604337752,72,45.37,141.82,44.42,15.05
367,djambala,100,CG,1604337752,91,-2.54,14.75,70.45,2.08
368,bambanglipuro,78,ID,1604337752,85,-7.95,110.28,77.05,4.83
369,praia da vitoria,75,PT,1604337499,100,38.73,-27.07,64.99,13.62
370,kloulklubed,75,PW,1604337753,88,7.04,134.26,78.8,4.7
371,galbinasi,40,RO,1604337753,62,45.08,26.92,51.8,4.7
372,shumskiy,100,RU,1604337753,89,54.83,99.13,32.65,2.57
373,khash,0,IR,1604337753,35,28.22,61.22,49.37,4.07
374,haverhill,90,US,1604337753,59,42.78,-71.08,39.0,17.22
375,baruun-urt,0,MN,1604337753,78,46.68,113.28,12.52,6.55
376,la palma,90,US,1604337753,82,33.85,-118.05,66.2,2.48
377,korla,51,CN,1604337621,46,41.76,86.15,41.0,5.01
378,saint-pierre,90,RE,1604337754,60,-21.34,55.48,73.4,12.75
379,edenderry,91,IE,1604337754,89,53.35,-7.05,44.01,11.01
380,ponta delgada,20,PT,1604337675,59,37.73,-25.67,64.4,14.99
381,rocha,53,UY,1604337754,61,-34.48,-54.33,67.32,9.01
382,coquimbo,75,CL,1604337710,82,-29.95,-71.34,57.2,11.41
383,kichera,59,RU,1604337754,76,55.94,110.1,13.86,1.01
384,sturgis,1,US,1604337755,44,41.8,-85.42,43.0,10.29
385,abbeville,65,FR,1604337469,79,50.1,1.83,55.0,14.88
386,noumea,0,NC,1604337755,78,-22.28,166.46,73.4,1.12
387,nguruka,92,TZ,1604337755,34,-5.11,31.04,81.84,1.63
388,jiblah,0,YE,1604337755,61,13.92,44.15,59.88,2.82
389,dandong,0,CN,1604337755,75,40.13,124.39,33.62,6.71
390,te anau,100,NZ,1604337755,89,-45.42,167.72,38.55,0.81
391,maues,52,BR,1604337756,37,-3.38,-57.72,98.29,3.11
392,dingle,97,PH,1604337756,88,11.0,122.67,75.92,5.95
393,alofi,75,NU,1604337756,94,-19.06,-169.92,75.2,13.87
394,saskylakh,99,RU,1604337756,94,71.92,114.08,7.86,8.95
395,petropavlovsk-kamchatskiy,75,RU,1604337756,100,53.05,158.65,33.8,2.24
396,bisira,100,PA,1604337756,100,8.52,-81.71,59.94,6.02
397,nemuro,100,JP,1604337756,89,43.32,145.57,54.68,9.01
398,lukavica,40,BA,1604337756,67,44.76,18.17,63.0,2.24
399,ancud,90,CL,1604337722,81,-41.87,-73.82,60.01,3.36
400,thoen,38,TH,1604337757,90,17.61,99.22,74.64,1.52
401,mehamn,75,NO,1604337757,86,71.04,27.85,39.2,26.4
402,roxana,75,CR,1604337757,83,10.28,-83.75,73.4,5.82
403,shawville,77,CA,1604337757,76,45.6,-76.48,34.0,4.0
404,bafq,0,IR,1604337757,25,31.61,55.41,63.0,1.99
405,rio branco,75,BR,1604337757,70,-9.97,-67.81,84.2,3.36
406,bitung,20,ID,1604337758,94,1.45,125.18,77.0,1.12
407,mujiayingzi,0,CN,1604337758,72,42.12,118.78,23.7,9.86
408,yelizovo,75,RU,1604337758,100,53.19,158.38,33.8,2.24
409,sukhobezvodnoye,58,RU,1604337758,93,57.05,44.89,33.39,7.14
410,luganville,72,VU,1604337758,85,-15.53,167.17,78.3,2.86
411,tulum,75,MX,1604337686,78,20.22,-87.47,82.4,13.87
412,arona,20,ES,1604337758,57,28.1,-16.68,77.0,23.04
413,marsa matruh,75,EG,1604337758,68,31.35,27.25,69.8,13.47
414,san rafael,0,AR,1604337636,14,-34.62,-68.33,88.18,17.74
415,san juan,0,AR,1604337612,13,-31.54,-68.54,89.49,6.98
416,tecoanapa,15,MX,1604337759,44,16.52,-98.75,89.06,3.06
417,ouadda,60,CF,1604337759,64,8.08,22.4,76.62,4.81
418,omboue,100,GA,1604337759,92,-1.57,9.26,75.31,2.84
419,lugovoy,95,KZ,1604337759,50,42.95,72.76,45.12,1.54
420,nemencine,75,LT,1604337759,81,54.85,25.48,46.99,11.41
421,tooele,1,US,1604337759,43,40.53,-112.3,60.01,3.36
422,matamoros,5,MX,1604337759,37,25.53,-103.25,68.0,6.17
423,urusha,14,RU,1604337759,86,54.05,122.9,5.0,5.59
424,svetlyy,90,RU,1604337760,93,54.67,20.13,52.0,6.71
425,hovd,65,MN,1604337760,85,48.01,91.64,27.55,0.27
426,touros,40,BR,1604337760,58,-5.2,-35.46,86.0,13.87
427,camacha,40,PT,1604337760,77,33.08,-16.33,69.8,6.93
428,bunia,100,CD,1604337760,88,1.57,30.25,65.59,3.42
429,carbonia,5,IT,1604337760,93,39.17,8.52,64.0,4.7
430,mandan,1,US,1604337760,46,46.83,-100.89,54.0,6.93
431,centralia,1,US,1604337517,100,46.72,-122.95,37.4,4.7
432,sakaiminato,75,JP,1604337761,100,35.55,133.23,51.8,3.36
433,hami,0,CN,1604337761,63,42.8,93.45,40.53,3.98
434,shimoda,100,JP,1604337761,95,34.67,138.95,55.99,10.89
435,artyshta,100,RU,1604337761,99,54.12,86.29,30.36,4.47
436,sinnamary,98,GF,1604337761,84,5.38,-52.95,79.65,14.65
437,pangnirtung,75,CA,1604337761,52,66.15,-65.71,17.6,4.7
438,bayan,99,CN,1604337761,91,46.08,127.4,24.24,12.73
439,jinchang,49,CN,1604337762,53,38.5,102.17,41.76,5.28
440,west plains,1,US,1604337762,34,36.73,-91.85,52.0,9.17
441,kuusamo,90,FI,1604337762,91,65.97,29.18,33.8,21.92
442,mezen,39,RU,1604337762,91,65.85,44.24,29.59,11.72
443,pangai,75,TO,1604337762,94,-19.8,-174.35,75.2,19.46
444,salme,20,NP,1604337762,93,28.04,85.09,60.8,2.24
445,lethem,100,GY,1604337762,54,3.38,-59.8,89.55,2.33
446,oranjemund,0,NA,1604337762,79,-28.55,16.43,63.59,13.35
447,manokwari,100,ID,1604337763,77,-0.87,134.08,79.66,4.94
448,westport,62,US,1604337763,49,41.14,-73.36,43.0,4.0
449,the pas,90,CA,1604337763,99,53.83,-101.25,33.8,6.93
450,acarau,32,BR,1604337763,57,-2.89,-40.12,87.91,15.46
451,bage,0,BR,1604337763,40,-31.33,-54.11,69.8,9.17
452,port-cartier,100,CA,1604337763,93,50.03,-66.87,39.0,8.05
453,santa ana,40,US,1604337763,77,33.75,-117.87,72.0,2.71
454,rizhao,0,CN,1604337764,51,35.43,119.46,45.73,8.72
455,yakeshi,16,CN,1604337764,89,49.28,120.73,5.92,8.55
456,dubrovka,100,RU,1604337764,93,53.69,33.51,44.46,7.18
457,olinda,40,BR,1604337481,62,-8.01,-34.86,87.8,11.41
458,chateaubelair,75,VC,1604337764,70,13.28,-61.25,86.0,5.82
459,alice springs,0,AU,1604337764,17,-23.7,133.88,77.0,11.41
460,shaunavon,5,CA,1604337764,56,49.65,-108.42,44.6,12.75
461,pundaguitan,99,PH,1604337764,77,6.37,126.17,82.92,3.53
462,sungaipenuh,100,ID,1604337764,96,-2.08,101.38,66.02,1.5
463,hokitika,100,NZ,1604337765,84,-42.72,170.97,50.38,5.66
464,lamballe,51,FR,1604337765,75,48.47,-2.51,52.0,11.95
465,sept-iles,100,CA,1604337765,93,50.2,-66.38,39.0,8.05
466,ossora,54,RU,1604337765,96,59.24,163.07,31.28,5.79
467,trinidad,60,BO,1604337765,36,-14.83,-64.9,93.2,8.05
468,kosino,9,RU,1604337765,95,58.41,51.28,27.43,3.31
469,lokosovo,99,RU,1604337765,98,61.13,74.82,25.03,5.97
470,formiga,69,BR,1604337766,44,-20.46,-45.43,78.17,1.39
471,tongchuan,24,CN,1604337766,48,35.08,109.09,47.19,3.96
472,marsabit,87,KE,1604337766,73,2.33,37.99,70.41,14.88
473,la ronge,100,CA,1604337766,70,55.1,-105.28,42.8,5.82
474,huambo,88,AO,1604337766,74,-12.78,15.74,67.3,3.87
475,ust-kuyga,13,RU,1604337766,85,70.02,135.6,-14.24,10.04
476,boa vista,75,BR,1604337692,58,2.82,-60.67,84.2,3.36
477,manali,20,IN,1604337766,89,13.17,80.27,84.2,6.02
478,santiago del estero,24,AR,1604337766,23,-27.8,-64.26,87.4,6.89
479,villa sandino,40,NI,1604337767,70,12.05,-84.99,84.2,5.57
480,rio grande,75,BR,1604337516,56,-32.03,-52.1,71.01,10.29
481,berlevag,75,NO,1604337693,86,70.86,29.09,39.2,21.92
482,grand gaube,29,MU,1604337767,66,-20.01,57.66,71.01,3.0
483,rehoboth,0,NA,1604337767,13,-23.32,17.08,82.71,21.03
484,general pico,0,AR,1604337767,24,-35.66,-63.76,83.5,12.21
485,la cruz,0,MX,1604337767,52,23.92,-106.9,90.0,1.99
486,praia,0,CV,1604337767,43,14.92,-23.51,89.6,9.17
487,chengde,0,CN,1604337767,69,40.97,117.94,27.64,4.85
488,la candelaria,78,VE,1604337768,85,9.69,-63.4,78.94,7.27
489,sorong,100,ID,1604337768,90,-0.88,131.25,75.74,2.08
490,lagos,100,NG,1604337481,75,6.58,3.75,82.18,3.58
491,harnosand,0,SE,1604337768,81,62.63,17.94,53.6,6.93
492,yate,35,GB,1604337768,81,51.54,-2.42,51.01,8.99
493,uusikaupunki,90,FI,1604337769,93,60.8,21.41,51.8,20.8
494,nivala,100,FI,1604337769,80,63.92,24.97,49.41,22.5
495,vostok,77,RU,1604337769,97,46.49,135.88,23.22,5.26
496,mayo,20,US,1604337769,45,38.89,-76.51,48.0,20.8
497,baneh,83,IR,1604337769,52,36.0,45.89,48.56,2.24
498,volosovo,90,RU,1604337769,86,59.43,29.48,39.2,13.42
499,jiwani,0,PK,1604337769,60,25.05,61.74,76.23,9.4
500,markova,75,UA,1604337769,81,48.68,24.41,48.2,4.65
501,fort-shevchenko,80,KZ,1604337769,49,44.51,50.26,57.88,7.36
502,atikokan,51,CA,1604337770,76,48.76,-91.62,38.62,9.19
503,rantepao,100,ID,1604337770,88,-2.97,119.9,66.81,1.61
504,balkanabat,59,TM,1604337770,24,39.51,54.37,69.51,4.36
505,muriti,20,TZ,1604337770,61,-1.98,32.92,78.8,5.82
506,tucuma,85,BR,1604337770,47,-0.18,-50.05,92.08,7.81
507,sidmouth,20,GB,1604337770,71,50.69,-3.24,50.0,13.87
508,tahoua,0,NE,1604337770,15,14.89,5.27,91.4,4.7
509,shar,94,KZ,1604337770,82,49.59,81.05,35.94,6.29
510,elko,1,US,1604337522,34,41.0,-115.5,35.6,3.36
511,newport,18,GB,1604337771,87,51.59,-3.0,52.0,5.01
512,togur,100,RU,1604337771,98,58.36,82.83,31.75,7.52
513,namtsy,90,RU,1604337771,75,62.72,129.67,-18.4,2.24
514,muros,58,ES,1604337771,68,42.78,-9.06,61.0,7.0
515,bilma,0,NE,1604337771,18,18.69,12.92,77.59,6.55
516,glendive,1,US,1604337771,53,47.11,-104.71,51.01,12.75
517,sisophon,47,KH,1604337772,84,13.59,102.97,75.16,6.67
518,podor,0,MR,1604337772,23,16.65,-14.96,98.6,2.24
519,yarada,75,IN,1604337772,79,17.65,83.27,84.2,2.24
520,kalanwali,0,IN,1604337772,23,29.85,74.95,65.41,2.35
521,denpasar,100,ID,1604337686,81,-8.65,115.22,77.85,5.35
522,atbasar,0,KZ,1604337772,94,51.8,68.33,32.18,3.53
523,orbetello,40,IT,1604337772,87,42.44,11.22,60.8,2.24
524,gat,19,IL,1604337772,70,31.61,34.76,72.0,4.65
525,sao jose da coroa grande,68,BR,1604337773,68,-8.9,-35.15,82.9,13.27
526,colac,79,AU,1604337773,61,-38.33,143.58,66.0,3.56
527,corralillo,57,CU,1604337773,73,22.98,-80.59,82.92,16.4
528,khani,90,GE,1604337773,93,41.96,42.96,57.2,2.24
529,sioux lookout,40,CA,1604337594,65,50.1,-91.92,41.0,12.75
530,kyren,84,RU,1604337773,88,51.68,102.14,28.11,2.46
531,nouakchott,100,MR,1604337619,8,18.09,-15.98,96.8,8.05
532,kirov,0,RU,1604337773,96,58.6,49.66,27.82,3.83
533,itoman,40,JP,1604337773,78,26.12,127.67,77.0,20.8
534,pontianak,96,ID,1604337774,95,-0.03,109.33,75.76,3.67
535,okhotsk,100,RU,1604337774,97,59.38,143.3,25.77,23.47
536,wagar,25,SD,1604337774,20,16.15,36.2,90.21,6.87
537,fairbanks,75,US,1604337511,74,64.84,-147.72,-9.4,1.7
538,samdari,0,IN,1604337774,18,25.82,72.58,77.07,3.67
539,fare,10,PF,1604337774,76,-16.7,-151.02,79.65,15.41
540,henties bay,22,NA,1604337775,85,-22.12,14.28,60.01,1.99
541,fernandopolis,26,BR,1604337775,28,-20.28,-50.25,81.66,7.72
542,rudnogorsk,100,RU,1604337775,96,57.26,103.75,24.51,9.71
543,cary,1,US,1604337602,31,35.79,-78.78,52.0,10.29
544,amantea,31,IT,1604337775,77,39.13,16.07,64.4,9.17
545,hachinohe,75,JP,1604337775,71,40.5,141.5,51.8,9.17
546,vawkavysk,99,BY,1604337775,78,53.16,24.45,46.76,9.04
547,ahuimanu,20,US,1604337775,94,21.44,-157.84,73.4,7.0
548,port hardy,90,CA,1604337775,87,50.7,-127.42,51.8,4.7
549,quang ngai,100,VN,1604337776,86,15.12,108.8,71.91,7.2
550,chabahar,0,IR,1604337776,67,25.29,60.64,75.88,10.92
551,smidovich,80,RU,1604337776,92,48.6,133.82,28.89,11.18
552,tuxtepec,56,MX,1604337480,62,18.1,-96.12,77.77,6.51
553,gairo,40,IT,1604337776,82,39.85,9.5,64.4,2.24
554,panambi,0,BR,1604337551,32,-28.29,-53.5,77.59,5.35
555,monrovia,41,LR,1604337586,77,6.3,-10.8,82.08,6.89
556,havre-saint-pierre,90,CA,1604337776,100,50.23,-63.6,44.6,10.29
557,neiafu,75,TO,1604337777,100,-18.65,-173.98,75.2,8.05
558,ternate,97,ID,1604337777,84,0.8,127.4,79.09,11.52
559,torbay,90,CA,1604337777,93,47.67,-52.73,51.01,31.09
560,portland,20,US,1604337073,81,45.52,-122.68,54.0,1.03
561,pyinmana,21,MM,1604337777,89,19.73,96.22,74.91,2.15
562,phalombe,50,MW,1604337670,73,-15.81,35.65,72.1,5.73
563,la asuncion,53,VE,1604337777,74,11.03,-63.86,86.0,12.75
564,bicester,20,GB,1604337484,71,51.9,-1.15,50.0,21.92
